{
    "type": "FeatureCollection",
    "name": "MiddleSchool_loc",
    "crs": { "type": "name", "properties": { "name": "urn:ogc:def:crs:OGC:1.3:CRS84" } },
    "features": [
    { "type": "Feature", "properties": { "A32_001": 16201, "A32_002": "富山市立", "A32_003": "芝園中学校", "address": "富山市芝園町三丁目1-26", "x": 137.2038639, "y": 36.69715556, "label": "芝園中学校" }, "geometry": { "type": "Point", "coordinates": [ 137.203863899999988, 36.69715556 ] } },
    { "type": "Feature", "properties": { "A32_001": 16201, "A32_002": "富山市立", "A32_003": "堀川中学校", "address": "富山市堀川小泉町一丁目21-15", "x": 137.2227778, "y": 36.67509167, "label": "堀川中学校" }, "geometry": { "type": "Point", "coordinates": [ 137.222777799999989, 36.67509167 ] } },
    { "type": "Feature", "properties": { "A32_001": 16201, "A32_002": "富山市立", "A32_003": "東部中学校", "address": "富山市長江新町四丁目4-60", "x": 137.2425694, "y": 36.69128056, "label": "東部中学校" }, "geometry": { "type": "Point", "coordinates": [ 137.2425694, 36.69128056 ] } },
    { "type": "Feature", "properties": { "A32_001": 16201, "A32_002": "富山市立", "A32_003": "西部中学校", "address": "富山市五福130", "x": 137.1897611, "y": 36.7035, "label": "西部中学校" }, "geometry": { "type": "Point", "coordinates": [ 137.1897611, 36.7035 ] } },
    { "type": "Feature", "properties": { "A32_001": 16201, "A32_002": "富山市立", "A32_003": "南部中学校", "address": "富山市西田地方町二丁目10-10", "x": 137.2066111, "y": 36.68276667, "label": "南部中学校" }, "geometry": { "type": "Point", "coordinates": [ 137.2066111, 36.68276667 ] } },
    { "type": "Feature", "properties": { "A32_001": 16201, "A32_002": "富山市立", "A32_003": "北部中学校", "address": "富山市東富山寿町二丁目4-52", "x": 137.2494972, "y": 36.74789444, "label": "北部中学校" }, "geometry": { "type": "Point", "coordinates": [ 137.2494972, 36.74789444 ] } },
    { "type": "Feature", "properties": { "A32_001": 16201, "A32_002": "富山市立", "A32_003": "新庄中学校", "address": "富山市荒川五丁目4-18", "x": 137.2534722, "y": 36.69434167, "label": "新庄中学校" }, "geometry": { "type": "Point", "coordinates": [ 137.2534722, 36.69434167 ] } },
    { "type": "Feature", "properties": { "A32_001": 16201, "A32_002": "富山市立", "A32_003": "岩瀬中学校", "address": "富山市蓮町四丁目3-10", "x": 137.2324417, "y": 36.74294444, "label": "岩瀬中学校" }, "geometry": { "type": "Point", "coordinates": [ 137.23244170000001, 36.74294444 ] } },
    { "type": "Feature", "properties": { "A32_001": 16201, "A32_002": "富山市立", "A32_003": "山室中学校", "address": "富山市山室30-1", "x": 137.2405139, "y": 36.66855, "label": "山室中学校" }, "geometry": { "type": "Point", "coordinates": [ 137.2405139, 36.66855 ] } },
    { "type": "Feature", "properties": { "A32_001": 16201, "A32_002": "富山市立", "A32_003": "奥田中学校", "address": "富山市奥井町25-10", "x": 137.2257139, "y": 36.70216389, "label": "奥田中学校" }, "geometry": { "type": "Point", "coordinates": [ 137.225713899999988, 36.70216389 ] } },
    { "type": "Feature", "properties": { "A32_001": 16201, "A32_002": "富山市立", "A32_003": "大泉中学校", "address": "富山市大泉東町二丁目11-26", "x": 137.2283972, "y": 36.6792, "label": "大泉中学校" }, "geometry": { "type": "Point", "coordinates": [ 137.228397199999989, 36.6792 ] } },
    { "type": "Feature", "properties": { "A32_001": 16201, "A32_002": "富山市立", "A32_003": "月岡中学校", "address": "富山市ｔ中布目156", "x": 137.2524722, "y": 36.61719722, "label": "月岡中学校" }, "geometry": { "type": "Point", "coordinates": [ 137.2524722, 36.61719722 ] } },
    { "type": "Feature", "properties": { "A32_001": 16201, "A32_002": "富山市立", "A32_003": "呉羽中学校", "address": "富山市呉羽町6662", "x": 137.165, "y": 36.71245278, "label": "呉羽中学校" }, "geometry": { "type": "Point", "coordinates": [ 137.165, 36.71245278 ] } },
    { "type": "Feature", "properties": { "A32_001": 16201, "A32_002": "富山市立", "A32_003": "水橋中学校", "address": "富山市水橋舘町443", "x": 137.3071111, "y": 36.75086944, "label": "水橋中学校" }, "geometry": { "type": "Point", "coordinates": [ 137.307111099999986, 36.75086944 ] } },
    { "type": "Feature", "properties": { "A32_001": 16201, "A32_002": "富山市立", "A32_003": "三成中学校", "address": "富山市水橋石割70", "x": 137.3128583, "y": 36.72243056, "label": "三成中学校" }, "geometry": { "type": "Point", "coordinates": [ 137.312858299999988, 36.72243056 ] } },
    { "type": "Feature", "properties": { "A32_001": 16201, "A32_002": "富山市立", "A32_003": "和合中学校", "address": "富山市布目3967", "x": 137.1860694, "y": 36.74881111, "label": "和合中学校" }, "geometry": { "type": "Point", "coordinates": [ 137.1860694, 36.74881111 ] } },
    { "type": "Feature", "properties": { "A32_001": 16201, "A32_002": "富山市立", "A32_003": "興南中学校", "address": "富山市下熊野728", "x": 137.2125139, "y": 36.63433611, "label": "興南中学校" }, "geometry": { "type": "Point", "coordinates": [ 137.2125139, 36.63433611 ] } },
    { "type": "Feature", "properties": { "A32_001": 16201, "A32_002": "富山市立", "A32_003": "藤ノ木中学校", "address": "富山市日俣222", "x": 137.2737222, "y": 36.6919, "label": "藤ノ木中学校" }, "geometry": { "type": "Point", "coordinates": [ 137.2737222, 36.6919 ] } },
    { "type": "Feature", "properties": { "A32_001": 16201, "A32_002": "富山市立", "A32_003": "大沢野中学校", "address": "富山市八木山550", "x": 137.2146194, "y": 36.59094444, "label": "大沢野中学校" }, "geometry": { "type": "Point", "coordinates": [ 137.2146194, 36.59094444 ] } },
    { "type": "Feature", "properties": { "A32_001": 16201, "A32_002": "富山市立", "A32_003": "上滝中学校", "address": "富山市中滝160", "x": 137.2925306, "y": 36.60956111, "label": "上滝中学校" }, "geometry": { "type": "Point", "coordinates": [ 137.2925306, 36.60956111 ] } },
    { "type": "Feature", "properties": { "A32_001": 16201, "A32_002": "富山市立", "A32_003": "八尾中学校", "address": "富山市八尾町福島250", "x": 137.1319694, "y": 36.58575833, "label": "八尾中学校" }, "geometry": { "type": "Point", "coordinates": [ 137.1319694, 36.58575833 ] } },
    { "type": "Feature", "properties": { "A32_001": 16201, "A32_002": "富山市立", "A32_003": "杉原中学校", "address": "富山市八尾町大杉84", "x": 137.1643444, "y": 36.60525556, "label": "杉原中学校" }, "geometry": { "type": "Point", "coordinates": [ 137.1643444, 36.60525556 ] } },
    { "type": "Feature", "properties": { "A32_001": 16201, "A32_002": "富山市立", "A32_003": "速星中学校", "address": "富山市婦中町板倉345-1", "x": 137.1648306, "y": 36.65568056, "label": "速星中学校" }, "geometry": { "type": "Point", "coordinates": [ 137.164830599999988, 36.65568056 ] } },
    { "type": "Feature", "properties": { "A32_001": 16201, "A32_002": "富山市立", "A32_003": "城山中学校", "address": "富山市婦中町河原町561-5", "x": 137.1223556, "y": 36.64480556, "label": "城山中学校" }, "geometry": { "type": "Point", "coordinates": [ 137.1223556, 36.64480556 ] } },
    { "type": "Feature", "properties": { "A32_001": 16201, "A32_002": "富山市立", "A32_003": "山田中学校", "address": "富山市山田北山41", "x": 137.0807306, "y": 36.58440556, "label": "山田中学校" }, "geometry": { "type": "Point", "coordinates": [ 137.08073060000001, 36.58440556 ] } },
    { "type": "Feature", "properties": { "A32_001": 16201, "A32_002": "富山市立", "A32_003": "楡原中学校", "address": "富山市楡原405", "x": 137.2331944, "y": 36.53564444, "label": "楡原中学校" }, "geometry": { "type": "Point", "coordinates": [ 137.2331944, 36.53564444 ] } },
    { "type": "Feature", "properties": { "A32_001": 16201, "A32_002": "富山市立", "A32_003": "北部中学校松風分校", "address": "富山市針日225", "x": 137.2604611, "y": 36.759725, "label": "北部中学校松風分校" }, "geometry": { "type": "Point", "coordinates": [ 137.260461099999986, 36.759725 ] } }
    ]
    }
    